{"rate_limit": 1, "expires_in": 300, "api_latest_version": "1.2", "generated_on": "2017-05-09T18:16:22+00:00", "data": [{"code": "108", "description": "", "url": "", "parent_station_id": null, "agency_ids": ["52"], "station_id": null, "location_type": "stop", "location": {"lat": 42.376273, "lng": -71.114441}, "stop_id": "4070634", "routes": ["4009256", "4009518", "4009520", "4009524", "4009526", "4009530", "4009532", "4009534", "4009536", "4009548"], "name": "Memorial Hall"}, {"code": "109", "description": "", "url": "", "parent_station_id": null, "agency_ids": ["52", "64"], "station_id": null, "location_type": "stop", "location": {"lat": 42.372861, "lng": -71.115048}, "stop_id": "4070638", "routes": ["4008486", "4009256", "4009518", "4009524", "4009526", "4009528", "4009530", "4009532", "4009534", "4009536", "4009538", "4009548"], "name": "Lamont Library"}, {"code": "106", "description": "", "url": "", "parent_station_id": null, "agency_ids": ["52"], "station_id": null, "location_type": "stop", "location": {"lat": 42.37813, "lng": -71.120033}, "stop_id": "4109006", "routes": ["4009256", "4009520", "4009524", "4009526", "4009530", "4009532", "4009534", "4009548"], "name": "Law School"}, {"code": "1000", "description": "", "url": "", "parent_station_id": null, "agency_ids": ["52"], "station_id": null, "location_type": "stop", "location": {"lat": 42.3712, "lng": -71.121323}, "stop_id": "4190630", "routes": ["4008374", "4008486"], "name": "Kennedy (Temporary Stop)"}, {"code": "107", "description": "", "url": "", "parent_station_id": null, "agency_ids": ["52"], "station_id": null, "location_type": "stop", "location": {"lat": 42.378795, "lng": -71.116738}, "stop_id": "4190632", "routes": ["4009256", "4009524", "4009526", "4009532", "4009534", "4009536"], "name": "Maxwell Dworkin"}, {"code": "111", "description": "", "url": "", "parent_station_id": null, "agency_ids": ["52"], "station_id": null, "location_type": "stop", "location": {"lat": 42.373226, "lng": -71.119527}, "stop_id": "4190634", "routes": ["4008374", "4009256", "4009692"], "name": "Harvard Square"}, {"code": "115", "description": "", "url": "", "parent_station_id": null, "agency_ids": ["52"], "station_id": null, "location_type": "stop", "location": {"lat": 42.367007, "lng": -71.124832}, "stop_id": "4190636", "routes": ["4008486", "4009256", "4009520", "4009692"], "name": "Stadium"}, {"code": "118", "description": "", "url": "", "parent_station_id": null, "agency_ids": ["52"], "station_id": null, "location_type": "stop", "location": {"lat": 42.371515, "lng": -71.12091}, "stop_id": "4190642", "routes": ["4008374", "4008486", "4009256", "4009692"], "name": "Kennedy School"}, {"code": "126", "description": "", "url": "", "parent_station_id": null, "agency_ids": ["52"], "station_id": null, "location_type": "stop", "location": {"lat": 42.363745, "lng": -71.123882}, "stop_id": "4190644", "routes": ["4009256", "4009692"], "name": "i-Lab (Temporary)"}, {"code": "132", "description": "", "url": "", "parent_station_id": null, "agency_ids": ["52"], "station_id": null, "location_type": "stop", "location": {"lat": 42.364482, "lng": -71.129584}, "stop_id": "4190656", "routes": ["4008374"], "name": "175 North Harvard"}, {"code": "133", "description": "", "url": "", "parent_station_id": null, "agency_ids": ["52"], "station_id": null, "location_type": "stop", "location": {"lat": 42.364108, "lng": -71.119086}, "stop_id": "4190660", "routes": ["4009256"], "name": "1 Western Ave"}, {"code": "134", "description": "", "url": "", "parent_station_id": null, "agency_ids": ["52"], "station_id": null, "location_type": "stop", "location": {"lat": 42.363276, "lng": -71.129074}, "stop_id": "4190662", "routes": ["4009256"], "name": "Barry's Corner"}, {"code": "101", "description": "", "url": "", "parent_station_id": null, "agency_ids": ["52"], "station_id": null, "location_type": "stop", "location": {"lat": 42.38182, "lng": -71.125369}, "stop_id": "4192954", "routes": ["4008486", "4009520", "4009526", "4009528", "4009530", "4009532", "4009534", "4009536", "4009538", "4009548", "4009690"], "name": "Quad"}, {"code": "105", "description": "", "url": "", "parent_station_id": null, "agency_ids": ["52"], "station_id": null, "location_type": "stop", "location": {"lat": 42.375186, "lng": -71.119394}, "stop_id": "4192956", "routes": ["4008486", "4009520", "4009526", "4009528", "4009530", "4009532", "4009534", "4009536", "4009538", "4009548", "4009690"], "name": "Mass Ave & Garden St"}, {"code": "110", "description": "", "url": "", "parent_station_id": null, "agency_ids": ["52"], "station_id": null, "location_type": "stop", "location": {"lat": 42.372973, "lng": -71.117203}, "stop_id": "4199508", "routes": ["4009518", "4009524", "4009526", "4009528", "4009530", "4009532", "4009534", "4009536", "4009538", "4009548"], "name": "Widener Gate"}, {"code": "112", "description": "", "url": "", "parent_station_id": null, "agency_ids": ["52"], "station_id": null, "location_type": "stop", "location": {"lat": 42.371804, "lng": -71.11823}, "stop_id": "4199510", "routes": ["4008486", "4009534", "4009536", "4009538", "4009548"], "name": "Winthrop House"}, {"code": "113", "description": "", "url": "", "parent_station_id": null, "agency_ids": ["52"], "station_id": null, "location_type": "stop", "location": {"lat": 42.368855, "lng": -71.115469}, "stop_id": "4199512", "routes": ["4008486", "4009518", "4009524", "4009526", "4009530", "4009532", "4009534", "4009536"], "name": "Mather House"}, {"code": "114", "description": "", "url": "", "parent_station_id": null, "agency_ids": ["52"], "station_id": null, "location_type": "stop", "location": {"lat": 42.367034, "lng": -71.114936}, "stop_id": "4199514", "routes": ["4009532", "4009534", "4009536"], "name": "Peabody Terrace"}, {"code": "116", "description": "", "url": "", "parent_station_id": null, "agency_ids": ["52"], "station_id": null, "location_type": "stop", "location": {"lat": 42.364618, "lng": -71.12336}, "stop_id": "4199516", "routes": ["4009256", "4009692"], "name": "HiLab-HBS"}, {"code": "117", "description": "", "url": "", "parent_station_id": null, "agency_ids": ["52"], "station_id": null, "location_type": "stop", "location": {"lat": 42.365124, "lng": -71.120391}, "stop_id": "4199518", "routes": ["4009692"], "name": "Soldiers Field Park"}, {"code": "119", "description": "", "url": "", "parent_station_id": null, "agency_ids": ["52"], "station_id": null, "location_type": "stop", "location": {"lat": 42.372048, "lng": -71.115231}, "stop_id": "4199520", "routes": ["4009518", "4009524", "4009526", "4009530", "4009532", "4009534", "4009536", "4009538", "4009548"], "name": "Inn at Harvard"}, {"code": "127", "description": "", "url": "", "parent_station_id": null, "agency_ids": ["52"], "station_id": null, "location_type": "stop", "location": {"lat": 42.371189, "lng": -71.127381}, "stop_id": "4199522", "routes": ["4009692"], "name": "Jordan Field"}, {"code": "128", "description": "", "url": "", "parent_station_id": null, "agency_ids": ["52"], "station_id": null, "location_type": "stop", "location": {"lat": 42.365642, "lng": -71.126935}, "stop_id": "4199524", "routes": ["4009692"], "name": "Stadium Complex (Gate #8)"}, {"code": "129", "description": "", "url": "", "parent_station_id": null, "agency_ids": ["52"], "station_id": null, "location_type": "stop", "location": {"lat": 42.370071, "lng": -71.116816}, "stop_id": "4199526", "routes": ["4009692"], "name": "DeWolfe St. at Mill St. Area"}, {"code": "130", "description": "", "url": "", "parent_station_id": null, "agency_ids": ["52"], "station_id": null, "location_type": "stop", "location": {"lat": 42.372417, "lng": -71.115209}, "stop_id": "4199528", "routes": ["4009692"], "name": "Lamont Library Gate"}, {"code": "131", "description": "", "url": "", "parent_station_id": null, "agency_ids": ["52"], "station_id": null, "location_type": "stop", "location": {"lat": 42.376512, "lng": -71.121987}, "stop_id": "4199530", "routes": ["4009690"], "name": "Garden St. at Mason St."}, {"code": "135", "description": "", "url": "", "parent_station_id": null, "agency_ids": ["52"], "station_id": null, "location_type": "stop", "location": {"lat": 42.367714, "lng": -71.128081}, "stop_id": "4200778", "routes": ["4009692"], "name": "Gordon Indoor Track"}], "api_version": "1.2"}